[
  {
    "id": "azteca",
    "name": "Estadio Azteca",
    "city": "Mexico City",
    "country": "Mexico",
    "capacity": 87523,
    "surface": "Natural Grass",
    "opened": 1966,
    "image": "/stadiums/azteca.jpg",
    "description": "Iconic stadium hosting its third World Cup. The Azteca has witnessed legendary moments including Maradona's 'Hand of God' goal and his 'Goal of the Century' in 1986.",
    "latitude": 19.3029,
    "longitude": -99.1505,
    "matches": 8
  },
  {
    "id": "metlife",
    "name": "MetLife Stadium",
    "city": "East Rutherford",
    "country": "USA",
    "capacity": 82500,
    "surface": "Natural Grass",
    "opened": 2010,
    "image": "/stadiums/metlife.jpg",
    "description": "Home of both the New York Giants and Jets, MetLife will host the grand finale — the 2026 World Cup Final — in the heart of the New York metropolitan area.",
    "latitude": 40.8136,
    "longitude": -74.0745,
    "matches": 9
  },
  {
    "id": "sofi",
    "name": "SoFi Stadium",
    "city": "Inglewood",
    "country": "USA",
    "capacity": 70240,
    "surface": "Natural Grass",
    "opened": 2020,
    "image": "/stadiums/sofi.jpg",
    "description": "State-of-the-art stadium near Los Angeles with a translucent roof and a massive double-sided video board. One of the most technologically advanced venues in the world.",
    "latitude": 33.9535,
    "longitude": -118.3392,
    "matches": 8
  },
  {
    "id": "att",
    "name": "AT&T Stadium",
    "city": "Arlington",
    "country": "USA",
    "capacity": 80000,
    "surface": "Natural Grass",
    "opened": 2009,
    "image": "/stadiums/att.jpg",
    "description": "Home of the Dallas Cowboys, known as 'Jerry World'. Features the world's largest retractable roof and one of the biggest high-definition video screens in sports.",
    "latitude": 32.7473,
    "longitude": -97.0945,
    "matches": 9
  },
  {
    "id": "levis",
    "name": "Levi's Stadium",
    "city": "Santa Clara",
    "country": "USA",
    "capacity": 68500,
    "surface": "Natural Grass",
    "opened": 2014,
    "image": "/stadiums/levis.jpg",
    "description": "Home of the San Francisco 49ers, featuring green design elements and solar panels. Located in Silicon Valley, it hosted Super Bowl 50.",
    "latitude": 37.4033,
    "longitude": -121.9694,
    "matches": 8
  },
  {
    "id": "lumen",
    "name": "Lumen Field",
    "city": "Seattle",
    "country": "USA",
    "capacity": 69000,
    "surface": "Natural Grass",
    "opened": 2002,
    "image": "/stadiums/lumen.jpg",
    "description": "Known for its passionate 12th Man fan culture and loud atmosphere, Lumen Field sits on Elliott Bay with views of the Olympic Mountains.",
    "latitude": 47.5952,
    "longitude": -122.3316,
    "matches": 8
  },
  {
    "id": "hardrock",
    "name": "Hard Rock Stadium",
    "city": "Miami Gardens",
    "country": "USA",
    "capacity": 64767,
    "surface": "Natural Grass",
    "opened": 1987,
    "image": "/stadiums/hardrock.jpg",
    "description": "Home of the Miami Dolphins, completely renovated in 2016. Located in the vibrant South Florida area, it hosted the 2020 Super Bowl.",
    "latitude": 25.9580,
    "longitude": -80.2389,
    "matches": 8
  },
  {
    "id": "nrg",
    "name": "NRG Stadium",
    "city": "Houston",
    "country": "USA",
    "capacity": 72220,
    "surface": "Natural Grass",
    "opened": 2002,
    "image": "/stadiums/nrg.jpg",
    "description": "The first NFL stadium with a retractable roof and natural grass. Home of the Houston Texans and host of multiple Super Bowls.",
    "latitude": 29.6847,
    "longitude": -95.4107,
    "matches": 8
  },
  {
    "id": "arrowhead",
    "name": "Arrowhead Stadium",
    "city": "Kansas City",
    "country": "USA",
    "capacity": 76416,
    "surface": "Natural Grass",
    "opened": 1972,
    "image": "/stadiums/arrowhead.jpg",
    "description": "Home of the Kansas City Chiefs and consistently ranked as one of the loudest stadiums in sports. Located in the heart of America.",
    "latitude": 39.0489,
    "longitude": -94.4839,
    "matches": 8
  },
  {
    "id": "lincoln",
    "name": "Lincoln Financial Field",
    "city": "Philadelphia",
    "country": "USA",
    "capacity": 69796,
    "surface": "Natural Grass",
    "opened": 2003,
    "image": "/stadiums/lincoln.jpg",
    "description": "Home of the Philadelphia Eagles in the historic city of brotherly love. Located adjacent to Citizens Bank Park and Wells Fargo Center.",
    "latitude": 39.9008,
    "longitude": -75.1675,
    "matches": 8
  },
  {
    "id": "mercedesbenz",
    "name": "Mercedes-Benz Stadium",
    "city": "Atlanta",
    "country": "USA",
    "capacity": 71000,
    "surface": "Natural Grass",
    "opened": 2017,
    "image": "/stadiums/mercedesbenz.jpg",
    "description": "Award-winning stadium with a retractable roof that opens like an oculus. Home to the Atlanta Falcons and Atlanta United FC.",
    "latitude": 33.7553,
    "longitude": -84.4008,
    "matches": 8
  },
  {
    "id": "gillette",
    "name": "Gillette Stadium",
    "city": "Foxborough",
    "country": "USA",
    "capacity": 65878,
    "surface": "Natural Grass",
    "opened": 2002,
    "image": "/stadiums/gillette.jpg",
    "description": "Home of the New England Patriots dynasty and New England Revolution. Located between Boston and Providence.",
    "latitude": 42.0909,
    "longitude": -71.2643,
    "matches": 8
  },
  {
    "id": "bmo",
    "name": "BMO Field",
    "city": "Toronto",
    "country": "Canada",
    "capacity": 45736,
    "surface": "Natural Grass",
    "opened": 2007,
    "image": "/stadiums/bmo.jpg",
    "description": "Canada's premier football stadium and home of Toronto FC in MLS. Expanded and renovated to meet FIFA World Cup standards.",
    "latitude": 43.6333,
    "longitude": -79.4181,
    "matches": 7
  },
  {
    "id": "bcplace",
    "name": "BC Place",
    "city": "Vancouver",
    "country": "Canada",
    "capacity": 54500,
    "surface": "Artificial Turf",
    "opened": 1983,
    "image": "/stadiums/bcplace.jpg",
    "description": "Western Canada's largest covered stadium with a retractable air-supported roof. Located in the heart of downtown Vancouver.",
    "latitude": 49.2768,
    "longitude": -123.1118,
    "matches": 7
  },
  {
    "id": "akron",
    "name": "Estadio Akron",
    "city": "Guadalajara",
    "country": "Mexico",
    "capacity": 49850,
    "surface": "Natural Grass",
    "opened": 2010,
    "image": "/stadiums/akron.jpg",
    "description": "Home of Club Deportivo Guadalajara (Chivas), one of Mexico's most beloved clubs. A modern stadium in Mexico's second largest city.",
    "latitude": 20.6823,
    "longitude": -103.4671,
    "matches": 7
  },
  {
    "id": "bbva",
    "name": "Estadio BBVA",
    "city": "Guadalupe",
    "country": "Mexico",
    "capacity": 53464,
    "surface": "Natural Grass",
    "opened": 2015,
    "image": "/stadiums/bbva.jpg",
    "description": "Home of CF Monterrey, built at the foot of the Cerro de la Silla mountain. One of the most scenic and modern stadiums in Latin America.",
    "latitude": 25.6693,
    "longitude": -100.2438,
    "matches": 7
  }
]
